City,Lat,Lng,Max Temp,Humidity,Clouds,Wind Speed,Country,Date
Yazd,31.8972,54.3675,100.51,11,20,9.22,IR,1626951381
Arraial do Cabo,-22.9661,-42.0278,55.36,100,20,0.0,BR,1626951031
Saint-Philippe,-21.3585,55.7679,76.59,74,34,15.17,RE,1626951381
Mataura,-46.1927,168.8643,43.48,97,14,2.66,NZ,1626951030
Rikitea,-23.1203,-134.9692,71.94,70,3,13.71,PF,1626951010
Nikolskoye,59.7035,30.7861,67.89,39,99,14.54,RU,1626951381
Vaini,-21.2,-175.2,73.56,88,20,4.61,TO,1626951036
Bluff,-46.6,168.3333,43.81,73,5,12.82,NZ,1626951382
Departamento de Maldonado,-34.6667,-54.9167,44.22,74,72,5.57,UY,1626951382
New Norfolk,-42.7826,147.0587,51.71,60,100,5.01,AU,1626951032
Yulara,-25.2406,130.9889,67.84,30,3,10.36,AU,1626951039
Nueva Gerona,21.8833,-82.8,80.82,78,0,7.14,CU,1626951383
Hilo,19.7297,-155.09,72.81,90,90,8.05,US,1626951037
Chokurdakh,70.6333,147.9167,47.91,72,93,9.01,RU,1626951383
Severo-Kuril'sk,50.6789,156.125,49.86,96,83,4.54,RU,1626951383
Copperas Cove,31.1241,-97.9031,72.68,90,90,0.0,US,1626951383
Puerto Ayora,-0.7393,-90.3518,70.56,97,99,10.0,EC,1626951384
Yellowknife,62.456,-114.3525,59.32,100,1,6.91,CA,1626950822
Leningradskiy,69.3833,178.4167,35.29,83,64,0.85,RU,1626951384
Adrar,20.5022,-10.0711,95.11,15,33,14.52,MR,1626951385
Kaitangata,-46.2817,169.8464,44.92,74,10,6.64,NZ,1626951385
Vanimo,-2.6741,141.3028,79.48,84,79,5.75,PG,1626951385
Ushuaia,-54.8,-68.3,37.06,81,75,0.0,AR,1626951027
Saint George,37.1041,-113.5841,82.94,53,1,3.0,US,1626950817
Batagay,67.6333,134.6333,65.86,52,0,4.97,RU,1626951386
Kahului,20.8947,-156.47,74.46,93,92,13.0,US,1626951315
Sioux Lookout,50.1001,-91.917,60.87,72,90,3.44,CA,1626951386
Marathon,44.9,-89.7668,62.82,77,90,5.75,US,1626951386
Piaçabuçu,-10.4056,-36.4344,76.57,78,53,11.34,BR,1626951387
Kirakira,-10.4544,161.9205,79.09,87,100,8.61,SB,1626951387
Busselton,-33.65,115.3333,54.05,73,100,10.36,AU,1626951027
Gloversville,43.0528,-74.3438,59.65,96,1,1.01,US,1626951387
Cayenne,4.9333,-52.3333,81.09,88,0,1.14,GF,1626951388
Ostrovnoy,68.0531,39.5131,46.06,83,100,11.01,RU,1626951388
Xining,36.6167,101.7667,80.89,42,79,16.91,CN,1626951388
Bengkulu,-3.8004,102.2655,80.69,75,38,3.53,ID,1626951389
Kruisfontein,-34.0033,24.7314,46.89,67,100,22.41,ZA,1626951389
Brae,60.3964,-1.353,53.51,78,92,9.31,GB,1626951389
Kimbe,-5.5502,150.1429,76.28,93,79,5.08,PG,1626951390
Bethel,41.3712,-73.414,65.19,90,0,5.06,US,1626951033
Cherskiy,68.75,161.3,59.23,57,100,4.97,RU,1626951029
Yingkou,40.6648,122.2283,77.95,75,100,5.1,CN,1626951390
Mahébourg,-20.4081,57.7,75.49,57,40,17.27,MU,1626951308
Punta Arenas,-53.15,-70.9167,39.31,93,75,9.22,CL,1626951027
Lebu,-37.6167,-73.65,47.68,88,100,4.32,CL,1626951390
Te Anau,-45.4167,167.7167,36.97,94,21,0.47,NZ,1626951391
Cockburn Town,21.4612,-71.1419,81.45,80,8,19.13,TC,1626951391
Karratha,-20.7377,116.8463,78.58,37,12,11.12,AU,1626951391
Albany,42.6001,-73.9662,60.53,96,1,3.74,US,1626951392
Barrow,71.2906,-156.7887,32.36,97,100,11.41,US,1626951392
Ponta do Sol,32.6667,-17.1,79.72,69,0,0.81,PT,1626951392
Finschhafen,-6.6024,147.8681,77.77,88,100,5.37,PG,1626951392
Wright,45.1833,-93.9502,72.18,89,1,1.99,US,1626951393
Letpadan,17.7833,95.75,81.93,84,100,11.01,MM,1626951393
Kolosovka,56.4678,73.611,80.64,52,46,9.04,RU,1626951394
Kismayo,-0.3582,42.5454,81.5,67,25,20.49,SO,1626951394
Aksarka,66.5606,67.7975,58.15,48,40,18.99,RU,1626951394
Kaeo,-35.1,173.7833,51.33,94,79,3.96,NZ,1626951394
São Filipe,14.8961,-24.4956,76.24,84,10,5.82,CV,1626951395
Geraldton,-28.7667,114.6,59.41,88,90,0.0,AU,1626951038
Kachug,53.9606,105.8817,77.85,57,65,5.84,RU,1626951395
Carnarvon,-24.8667,113.6333,66.27,61,0,10.36,AU,1626951395
Tilichiki,60.4667,166.1,54.82,69,100,2.84,RU,1626951396
Provideniya,64.3833,-173.3,42.67,79,100,1.39,RU,1626951030
Cap Malheureux,-19.9842,57.6142,75.69,60,54,10.0,MU,1626951396
Aguililla,18.7333,-102.7333,65.43,87,24,2.91,MX,1626951396
Verkhoyansk,67.5447,133.385,68.27,46,2,5.37,RU,1626951397
Kapaa,22.0752,-159.319,79.12,81,75,5.01,US,1626951035
Avarua,-21.2078,-159.775,69.85,94,14,2.3,CK,1626951397
Santa Vitória do Palmar,-33.5189,-53.3681,44.8,80,69,5.17,BR,1626951398
Dingle,10.9995,122.6711,78.57,79,99,12.44,PH,1626951398
Laas,46.6166,10.7002,79.02,68,47,0.94,IT,1626951398
Vostok,46.4856,135.8833,71.89,82,94,3.02,RU,1626951399
Hithadhoo,-0.6,73.0833,82.29,75,99,13.15,MV,1626951399
Port Elizabeth,-33.918,25.5701,49.1,87,75,16.11,ZA,1626951400
Butajīra,8.1167,38.3667,70.25,63,79,8.72,ET,1626951400
Atuona,-9.8,-139.0333,76.93,75,86,12.86,PF,1626951159
Pevek,69.7008,170.3133,41.95,67,7,7.38,RU,1626951401
Butaritari,3.0707,172.7902,82.96,76,13,11.45,KI,1626951401
Port Alfred,-33.5906,26.891,51.66,71,100,29.01,ZA,1626951025
Cape Town,-33.9258,18.4232,58.1,75,40,1.01,ZA,1626950906
Mar del Plata,-38.0023,-57.5575,47.12,65,100,8.01,AR,1626951031
Hobart,-42.8794,147.3294,52.05,65,75,3.0,AU,1626951401
Mossamedes,-15.1961,12.1522,83.26,32,0,4.65,AO,1626951401
Upernavik,72.7868,-56.1549,40.64,96,100,11.23,GL,1626951402
Bredasdorp,-34.5322,20.0403,52.92,62,98,9.22,ZA,1626951034
Hornepayne,49.2138,-84.7705,58.6,59,100,4.18,CA,1626951402
Naze,28.3667,129.4833,77.92,91,100,29.28,JP,1626951402
Coyhaique,-45.5752,-72.0662,46.35,87,90,4.61,CL,1626951403
Novaya Ladoga,60.1025,32.3019,66.99,53,100,17.92,RU,1626951403
Castro,-24.7911,-50.0119,47.08,72,0,3.0,BR,1626951403
Salalah,17.0151,54.0924,80.58,85,97,12.91,OM,1626951404
Jati,24.3539,68.2671,94.98,54,3,18.97,PK,1626951404
Longyearbyen,78.2186,15.6401,46.24,66,75,8.05,SJ,1626951404
Mandurah,-32.55,115.7,58.21,63,86,10.04,AU,1626951404
Selenginsk,52.0064,106.8647,81.01,63,0,4.36,RU,1626951405
Saint-François,46.4154,3.9054,80.47,52,0,6.91,FR,1626951405
Port Macquarie,-31.4333,152.9167,48.16,84,6,8.75,AU,1626951405
Padre Paraíso,-17.0742,-41.4844,60.82,83,29,2.73,BR,1626951406
Jamestown,42.097,-79.2353,55.33,98,75,1.99,US,1626951406
Katsuura,35.1333,140.3,85.1,84,16,6.38,JP,1626951406
Zhaotong,27.3167,103.7167,70.43,83,82,5.19,CN,1626951406
Beringovskiy,63.05,179.3167,52.93,74,60,2.73,RU,1626951407
Ribeira Grande,38.5167,-28.7,70.2,68,20,8.05,PT,1626951026
Podosinovets,60.2776,47.0659,68.7,31,61,8.46,RU,1626951407
Sibolga,1.7427,98.7792,82.24,75,91,2.26,ID,1626951407
Solofra,40.8295,14.8419,89.17,41,9,4.18,IT,1626951408
San Quintín,30.4833,-115.95,68.34,90,80,4.61,MX,1626951408
Lavrentiya,65.5833,-171.0,37.54,89,100,4.5,RU,1626951408
Helong,42.5397,128.9972,78.04,75,97,1.63,CN,1626951408
Buraidah,26.326,43.975,111.65,9,18,13.87,SA,1626951409
Kargasok,59.0556,80.8572,82.27,42,68,8.59,RU,1626951409
Hermanus,-34.4187,19.2345,55.9,64,86,8.9,ZA,1626951026
Jos,9.9167,8.9,74.55,74,85,5.61,NG,1626951409
Witu,-2.3889,40.4382,83.19,53,16,16.78,KE,1626951410
Sapozhok,53.9419,40.6806,75.74,39,12,11.61,RU,1626951410
Stornoway,58.2093,-6.3865,60.93,88,75,9.22,GB,1626951410
Asău,46.4333,26.4,74.95,47,45,7.18,RO,1626951411
Kumul,42.8,93.45,101.8,12,11,6.98,CN,1626951411
Colares,38.7992,-9.4469,77.04,67,20,7.0,PT,1626951411
Novosergiyevka,52.0934,53.6528,98.73,21,54,20.74,RU,1626951412
Zhigalovo,54.8097,105.1578,78.91,48,72,10.33,RU,1626951412
Olafsvik,64.8945,-23.7142,52.09,97,100,15.14,IS,1626951412
Bambous Virieux,-20.3428,57.7575,75.45,57,40,17.27,MU,1626951034
Tromsø,69.6496,18.957,50.65,87,75,3.0,NO,1626951413
Sitka,57.0531,-135.33,57.09,82,90,8.05,US,1626951032
Tuktoyaktuk,69.4541,-133.0374,42.44,91,97,12.5,CA,1626951029
Marawi,7.9986,124.2928,70.95,88,100,6.29,PH,1626951413
Chapais,49.7834,-74.8492,51.58,67,99,4.97,CA,1626951413
Torbat-e Jām,35.244,60.6225,97.92,10,3,14.83,IR,1626951414
Tiznit Province,29.5833,-9.5,102.52,12,2,19.62,MA,1626951414
Qaanaaq,77.484,-69.3632,41.54,78,100,9.46,GL,1626951414
Talnakh,69.4865,88.3972,67.87,52,99,17.54,RU,1626951415
Quesnel,52.9999,-122.5029,48.7,93,90,2.3,CA,1626951415
Mount Gambier,-37.8333,140.7667,42.71,93,90,12.66,AU,1626951415
Havelock,34.8791,-76.9013,76.98,91,1,1.99,US,1626951132
Awjilah,29.1081,21.2869,93.11,30,2,11.36,LY,1626951416
Blackwater,-23.5833,148.8833,53.26,34,0,10.18,AU,1626951416
Presidencia Roque Sáenz Peña,-26.7852,-60.4388,49.46,67,0,5.75,AR,1626951416
Hobyo,5.3505,48.5268,83.32,65,24,32.03,SO,1626951416
Tha Chang,9.2642,99.1922,91.42,55,20,12.66,TH,1626951417
La Baule-Escoublac,47.2922,-2.364,86.72,41,0,19.57,FR,1626951417
Half Moon Bay,37.4636,-122.4286,59.76,86,1,0.0,US,1626951417
Saint-Pierre,-21.3393,55.4781,76.68,61,0,4.61,RE,1626951418
Thompson,55.7435,-97.8558,60.96,94,90,0.0,CA,1626951038
Tasiilaq,65.6145,-37.6368,39.79,98,100,11.86,GL,1626951418
Bilma,18.6853,12.9164,104.76,18,14,5.35,NE,1626951418
Kasungu,-13.0333,33.4833,82.71,27,14,6.67,MW,1626951419
Alice Springs,-23.7,133.8833,72.95,28,43,8.05,AU,1626951419
Hikari,33.955,131.95,82.58,81,100,0.81,JP,1626951419
Port Lincoln,-34.7333,135.8667,50.5,83,92,12.91,AU,1626951419
Inuvik,68.3499,-133.7218,59.86,94,90,2.3,CA,1626951420
Sulayman,31.4002,46.2851,121.15,8,0,18.66,IQ,1626951420
Hargeisa,9.56,44.065,83.07,38,36,29.66,SO,1626951420
Kadnikov,59.5022,40.338,65.95,38,64,10.87,RU,1626951421
Natal,-5.795,-35.2094,75.42,83,75,10.36,BR,1626951206
Pailón,-17.65,-62.75,58.68,44,0,1.92,BO,1626951421
Smolenka,52.1352,113.4974,68.07,94,40,4.47,RU,1626951421
Khatanga,71.9667,102.5,58.41,76,94,2.28,RU,1626951422
Jiamusi,46.8333,130.35,84.61,60,37,2.82,CN,1626951422
Elesbão Veloso,-6.2019,-42.1403,77.4,53,30,10.89,BR,1626951422
Lüderitz,-26.6481,15.1594,68.52,23,42,14.63,NA,1626951030
Tezu,27.9167,96.1667,93.16,63,22,1.68,IN,1626951423
Polunochnoye,60.8697,60.4153,60.08,94,100,2.66,RU,1626951423
Grindavik,63.8424,-22.4338,56.55,100,90,18.41,IS,1626951423
Lompoc,34.6391,-120.4579,66.78,84,90,5.75,US,1626951033
Stokmarknes,68.5646,14.9108,53.49,82,75,13.8,NO,1626951424
Saskylakh,71.9167,114.0833,65.21,46,100,15.61,RU,1626951424
Arlit,18.7369,7.3853,100.08,27,8,7.92,NE,1626951424
Esperance,-33.8667,121.9,49.84,75,100,12.46,AU,1626951425
Nanortalik,60.1432,-45.2371,42.62,93,45,14.72,GL,1626951425
Dikson,73.5069,80.5464,53.44,72,100,29.68,RU,1626951028
San Felipe,10.3399,-68.7425,72.34,97,92,1.07,VE,1626951425
Tabon,9.2388,117.9946,82.85,75,49,12.66,PH,1626951426
Córdoba,-31.4135,-64.1811,51.76,54,0,6.91,AR,1626951266
Sayyan,15.1718,44.3244,67.86,60,61,8.93,YE,1626951426
Meïganga,6.5167,14.3,77.16,73,85,4.18,CM,1626951427
Husasău de Tinca,46.8167,21.9167,82.4,41,6,9.71,RO,1626951427
Jizan,17.3333,42.6667,94.14,50,64,12.68,SA,1626951427
Wajima,37.4,136.9,79.48,88,20,3.44,JP,1626951427
Bilibino,68.0546,166.4372,55.29,42,67,4.52,RU,1626951428
Vardø,70.3705,31.1107,46.26,67,100,26.33,NO,1626951428
Buchanan,5.8808,-10.0467,84.16,75,75,7.81,LR,1626951428
Ancud,-41.8697,-73.8203,49.53,92,100,11.95,CL,1626951429
Giehun,7.8833,-11.05,79.9,76,88,3.94,SL,1626951429
Cidreira,-30.1811,-50.2056,54.43,77,6,8.41,BR,1626951040
Springville,40.1652,-111.6107,76.98,57,96,3.71,US,1626951213
Yulin,22.6333,110.15,79.93,92,100,6.04,CN,1626951429
Honiara,-9.4333,159.95,77.32,87,98,8.03,SB,1626951430
Ixtapa,20.7,-105.2,82.22,85,86,1.01,MX,1626951430
Zanjān,36.6736,48.4787,94.69,11,0,21.85,IR,1626951430
Husavik,66.0449,-17.3389,66.11,70,0,2.57,IS,1626951431
Atambua,-9.1061,124.8925,70.79,79,69,0.47,ID,1626951431
Ulaangom,49.9811,92.0667,85.44,24,100,6.62,MN,1626951431
Sørland,67.667,12.6934,51.66,85,100,13.27,NO,1626951431
Chalchihuites,23.4833,-103.8833,56.1,82,96,4.23,MX,1626951432
Port-Cartier,50.0334,-66.8654,59.76,82,93,2.21,CA,1626951432
Aquiraz,-3.9014,-38.3911,81.21,63,24,15.3,BR,1626951432
Qandala,11.472,49.8728,94.5,46,8,16.15,SO,1626951433
Hoquiam,46.9809,-123.8893,56.01,51,12,1.28,US,1626951433
Los Llanos de Aridane,28.6585,-17.9182,73.13,73,20,23.02,ES,1626951433
Huarmey,-10.0681,-78.1522,62.51,87,32,6.35,PE,1626951434
Dinguiraye,11.3,-10.7167,83.41,66,77,1.83,GN,1626951434
Iqaluit,63.7506,-68.5145,42.53,93,90,8.99,CA,1626951032
Leirvik,59.7798,5.5005,63.63,73,37,11.74,NO,1626951434
Fortuna,40.5982,-124.1573,55.47,90,90,0.0,US,1626951435
East London,-33.0153,27.9116,56.34,41,20,34.52,ZA,1626951037
Laguna de Perlas,12.3429,-83.6712,78.42,87,92,16.71,NI,1626951435
Northam,51.0333,-4.2167,79.14,71,94,10.31,GB,1626951435
Padang,-0.9492,100.3543,81.54,79,68,1.79,ID,1626951266
Cabras,39.93,8.5314,86.86,41,0,10.36,IT,1626951436
Ahipara,-35.1667,173.1667,53.8,86,63,4.05,NZ,1626951436
Mackay,-21.15,149.2,55.04,82,0,6.91,AU,1626951436
Saint Paul Harbor,57.79,-152.4072,52.75,96,100,10.4,US,1626951041
Vaitape,-16.5167,-151.75,77.9,78,19,14.67,PF,1626951437
São Gabriel da Cachoeira,-0.1303,-67.0892,70.72,99,87,1.19,BR,1626951194
Santa Fe,-31.6333,-60.7,50.92,75,46,4.0,AR,1626951339
Vila Franca do Campo,37.7167,-25.4333,70.21,73,75,8.9,PT,1626951028
Kavaratti,10.5669,72.642,82.53,81,100,22.55,IN,1626951437
Pisco,-13.7,-76.2167,60.85,88,90,1.14,PE,1626951040
Gondanglegi,-7.7479,112.0132,77.05,76,55,14.61,ID,1626951438
San Patricio,28.017,-97.5169,81.82,76,79,3.18,US,1626951031
Sayansk,54.1088,102.1648,73.27,61,67,5.86,RU,1626951394
Conceição do Araguaia,-8.2578,-49.2647,69.93,83,0,0.0,BR,1626951438
Kurumkan,54.3,110.3,71.64,69,95,2.46,RU,1626951439
Vao,-22.6667,167.4833,69.51,76,2,12.3,NC,1626951439
Jasper,37.2001,-94.3502,70.0,88,2,1.01,US,1626951439
Shakawe,-18.3667,21.85,74.39,16,0,7.7,BW,1626951440
Ormara,25.2088,64.6357,84.22,87,37,17.13,PK,1626951440
Lagoa,39.05,-27.9833,67.01,76,72,14.07,PT,1626951440
Chui,-33.6971,-53.4616,44.46,81,62,5.08,UY,1626951440
Warrington,53.3925,-2.5802,86.86,57,0,1.01,GB,1626951441
Kedrovyy,56.1667,91.8167,79.21,40,20,4.81,RU,1626951441
Torbay,47.6666,-52.7314,51.76,99,90,9.22,CA,1626951441
Hong Kong,22.2855,114.1577,88.32,78,73,1.01,HK,1626951185
Wenling,28.3669,121.36,78.91,90,85,19.1,CN,1626951442
Ouésso,1.6136,16.0517,94.24,34,100,3.91,CG,1626951442
Am Timan,11.0297,20.2827,72.99,87,100,2.55,TD,1626951442
Bud,39.447,-86.1758,67.82,92,11,5.26,US,1626951443
Pakxan,18.3778,103.6601,75.72,96,96,3.94,LA,1626951443
Noumea,-22.2763,166.4572,66.18,81,13,4.0,NC,1626951432
Kungurtug,50.5994,97.5228,81.1,32,77,4.41,RU,1626951443
Nishihara,26.1842,127.7558,78.08,94,75,19.57,JP,1626951444
Tuatapere,-46.1333,167.6833,43.83,91,8,4.03,NZ,1626951444
Brunswick,41.2381,-81.8418,56.98,86,20,2.24,US,1626951193
Necochea,-38.5473,-58.7368,46.04,69,100,10.13,AR,1626951444
Pouébo,-20.4,164.5667,66.63,74,0,4.05,NC,1626951445
Flin Flon,54.7682,-101.865,60.51,99,11,6.78,CA,1626951445
Krasnosel'kup,65.7,82.4667,67.39,78,99,13.71,RU,1626951445
Batemans Bay,-35.7167,150.1833,48.9,70,95,6.44,AU,1626951446
Hasaki,35.7333,140.8333,82.69,84,98,8.5,JP,1626951024
Fairbanks,64.8378,-147.7164,69.8,63,90,3.44,US,1626951331
Bogoslovka,53.2084,44.8013,73.0,55,70,7.67,RU,1626951446
Tual,-5.6667,132.75,80.31,78,100,16.55,ID,1626951446
Tambo,-14.8,-73.9167,32.76,73,0,10.07,PE,1626951446
Perth,-31.9333,115.8333,60.06,77,20,6.91,AU,1626951447
Cap-aux-Meules,47.3821,-61.8597,60.85,100,90,10.36,CA,1626951447
Kralendijk,12.15,-68.2667,80.08,85,5,23.98,BQ,1626951411
Avera,33.194,-82.5271,74.71,94,34,4.14,US,1626951447
Arman',59.7,150.1667,51.67,99,100,7.74,RU,1626951448
Port Augusta,-32.5,137.7667,49.71,94,100,13.31,AU,1626951448
Graham,47.0529,-122.2943,57.7,91,75,0.0,US,1626951448
Mongo,12.1844,18.693,73.71,83,100,2.01,TD,1626951448
Jinchang,38.4953,102.1739,91.81,19,100,18.34,CN,1626951449
Nānākuli,21.3906,-158.1547,77.99,78,75,3.44,US,1626951449
Ritchie,-29.038,24.6028,45.61,30,38,12.39,ZA,1626951252
Maceió,-9.6658,-35.7353,74.64,88,75,5.75,BR,1626950952
Jutaí,-5.1833,-68.9,65.35,79,13,2.64,BR,1626951449
Riverton,40.5219,-111.9391,80.08,53,40,5.01,US,1626951423
Kundiawa,-6.0167,144.9667,64.27,99,98,1.03,PG,1626951450
Sarangani,5.4033,125.4636,84.15,75,74,17.74,PH,1626951450
Quelimane,-17.8786,36.8883,84.15,65,40,5.01,MZ,1626951450
Kalengwa,-13.4659,25.0027,82.63,18,1,8.37,ZM,1626951451
São João da Barra,-21.6403,-41.0511,64.49,82,15,5.79,BR,1626951028
Vestmannaeyjar,63.4427,-20.2734,54.59,94,40,6.91,IS,1626951451
Boa Vista,2.8197,-60.6733,76.98,94,40,3.44,BR,1626951396
Coquimbo,-29.9533,-71.3436,42.53,100,90,10.36,CL,1626951451
Svobodnyy,51.4,128.1333,80.8,80,41,7.27,RU,1626951452
Kenora,49.8167,-94.4337,63.57,94,90,6.91,CA,1626951335
Mareeba,-17.0,145.4333,63.32,89,5,2.68,AU,1626951249
Pandan,14.0453,124.1694,82.35,81,100,16.69,PH,1626951452
Kudahuvadhoo,2.6708,72.8944,82.15,75,100,12.19,MV,1626951452
Sabang,5.8933,95.3214,83.34,78,31,24.87,ID,1626951453
Margate,51.3813,1.3862,78.89,69,0,3.0,GB,1626951453
Arkhonskaya,43.11,44.5125,87.46,48,95,4.47,RU,1626951453
The Valley,18.217,-63.0578,82.26,76,1,21.32,AI,1626951454
Humaitá,-7.5061,-63.0208,69.04,71,3,3.09,BR,1626951454
Matagami,49.7502,-77.6328,50.11,87,75,2.3,CA,1626951454
Oranjemund,-28.55,16.4333,59.81,47,20,13.31,NA,1626951454
Zhangaözen,43.3,52.8,103.77,11,0,11.65,KZ,1626951455
Berezovyy,51.6667,135.7,78.6,77,72,2.39,RU,1626951455
San Jerónimo,-11.9472,-75.2829,38.98,83,3,1.25,PE,1626951455
Russell,32.3502,-85.1999,74.48,95,90,0.0,US,1626951456
Oktyabr'skiy,54.4815,53.471,80.37,60,97,19.06,RU,1626951456
Nishifukuma,33.7667,130.4667,87.1,64,100,7.65,JP,1626951456
Port Keats,-14.25,129.55,71.85,63,25,6.35,AU,1626951457
Letlhakane,-21.4167,25.5833,70.05,4,0,10.47,BW,1626951457
Hambantota,6.1241,81.1185,89.94,62,20,23.02,LK,1626951457
Teguise,29.0605,-13.564,71.82,69,20,23.02,ES,1626951458
Tari,12.4086,4.4914,90.9,46,81,9.86,NG,1626951458
Bandarbeyla,9.4942,50.8122,91.29,46,34,29.35,SO,1626951458
Koslan,63.4564,48.8989,62.87,33,86,4.99,RU,1626951459
Yar-Sale,66.8333,70.8333,65.86,38,41,22.46,RU,1626951459
Ames,42.0347,-93.6199,70.07,93,1,3.0,US,1626951398
San Lorenzo,-25.3333,-57.5333,53.33,50,0,5.75,PY,1626951460
Valdosta,30.8327,-83.2785,76.14,99,9,4.79,US,1626951460
Tiksi,71.6872,128.8694,41.49,90,88,5.28,RU,1626951460
Aleksandrov Gay,50.147,48.5704,93.43,31,99,12.48,RU,1626951461
George Town,5.4112,100.3354,89.55,58,20,12.66,MY,1626951461
Nuevo Progreso,23.1667,-97.95,77.59,84,99,3.2,MX,1626951461
Eséka,3.65,10.7667,79.95,79,97,5.28,CM,1626951462
Maragheh,37.3917,46.2398,97.07,1,20,6.91,IR,1626951462
Labuhan,-6.8844,112.2051,82.27,74,41,9.91,ID,1626951462
Daşoguz,41.8363,59.9666,98.55,16,0,13.8,TM,1626951463
Mīnāb,27.1467,57.0801,99.9,49,0,12.19,IR,1626951463
Itarema,-2.9248,-39.9167,79.88,65,48,15.75,BR,1626951463
Shahr-e Bābak,30.1165,55.1186,92.68,9,6,19.53,IR,1626951463
Langenburg,49.2544,9.8458,79.03,49,0,4.61,DE,1626951464
Norman Wells,65.282,-126.8329,55.44,94,75,6.91,CA,1626951464
Kavieng,-2.5744,150.7967,82.18,78,94,11.12,PG,1626951464
Grand Gaube,-20.0064,57.6608,75.6,60,58,10.0,MU,1626951465
Kiryat Gat,31.61,34.7642,92.39,39,0,14.88,IL,1626951465
Novovasylivka,46.8315,35.7536,71.87,77,100,15.21,UA,1626951465
Bonavista,48.6499,-53.1147,50.11,84,100,9.86,CA,1626951465
Kutum,14.2,24.6667,78.42,53,100,5.82,SD,1626951466
Turaif,31.6725,38.6637,93.45,26,0,9.22,SA,1626951466
Ballina,-28.8667,153.5667,51.78,93,57,0.0,AU,1626951466
Kasongo,-4.45,26.6667,97.77,15,0,6.38,CD,1626951466
Touros,-5.1989,-35.4608,74.3,70,26,16.67,BR,1626951467
Shache,38.4167,77.2406,86.76,25,8,10.0,CN,1626951467
Skibbereen,51.55,-9.2667,73.2,70,100,13.33,IE,1626951467
Slave Lake,55.2834,-114.769,53.58,87,90,3.44,CA,1626951468
Ouadda,8.0777,22.4007,72.5,88,100,5.39,CF,1626951468
Klaksvík,62.2266,-6.589,52.72,91,45,8.12,FO,1626951468
Newport,51.5877,-2.9984,84.18,65,47,3.91,GB,1626951342
Santo Antônio do Içá,-3.1022,-67.9397,71.89,79,99,2.68,BR,1626951469
Aklavik,68.2191,-135.0107,59.83,87,77,17.72,CA,1626951469
Tadine,-21.55,167.8833,69.51,79,0,5.99,NC,1626951469
Mana,5.6592,-53.7767,77.54,92,31,6.55,GF,1626951469
Dzilam González,21.2833,-88.9333,73.89,98,20,4.41,MX,1626951470
Andrychów,49.855,19.3383,75.09,52,62,4.5,PL,1626951470
Tarazona,41.9,-1.7333,92.53,26,0,10.02,ES,1626951470
Mae Sai,20.4335,99.8762,83.52,95,99,1.74,TH,1626951471
Kisangani,0.5167,25.2,96.53,31,87,1.01,CD,1626951471
Sehithwa,-20.4667,22.7167,68.45,9,0,9.13,BW,1626951471
Arkhangelsk,64.5401,40.5433,59.11,94,75,4.47,RU,1626951472
Shirokiy,49.758,129.523,80.17,78,30,3.78,RU,1626951472
Dunda,-8.1167,34.25,87.93,24,8,3.8,TZ,1626951473
Thinadhoo,0.5333,72.9333,82.26,74,100,9.22,MV,1626951473
Mayo,38.8876,-76.5119,69.24,85,0,1.01,US,1626951473
Carauari,-4.8828,-66.8958,68.36,76,61,3.22,BR,1626951473
Teya,60.3778,92.6267,72.32,45,96,3.4,RU,1626951474
Hofn,64.2539,-15.2082,57.22,77,0,9.22,IS,1626951474
Walvis Bay,-22.9575,14.5053,77.95,19,0,4.61,NA,1626951474
Tandil,-37.3217,-59.1332,43.11,89,100,7.29,AR,1626951475
Faanui,-16.4833,-151.75,77.9,78,19,14.65,PF,1626951475
Chizhou,30.6578,117.4831,80.94,83,45,11.07,CN,1626951475
Bluefield,37.2698,-81.2223,62.38,95,39,1.5,US,1626951475
Kalispell,48.1958,-114.3129,59.68,65,1,1.01,US,1626951476
Halvad,23.0167,71.1833,92.7,55,97,19.66,IN,1626951476
Zapolyarnyy,69.4154,30.8136,45.68,62,100,21.16,RU,1626951476
Djebeniana,35.035,10.9081,91.2,44,0,13.76,TN,1626951477
Sal Rei,16.1833,-22.9167,79.36,78,20,9.22,CV,1626951477
Daru,-9.0763,143.2092,77.41,78,92,14.25,PG,1626951477
Skagen,57.7209,10.5839,66.33,73,6,8.34,DK,1626951478
Henties Bay,-22.116,14.2845,60.85,48,0,10.89,NA,1626951478
Coahuayana Viejo,18.7333,-103.6833,77.77,92,95,2.71,MX,1626951478
Timon,-5.0942,-42.8367,74.98,78,0,0.0,BR,1626951478
Turan,16.0678,108.2208,91.45,55,40,1.14,VN,1626951414
Alofi,-19.0595,-169.9187,73.29,100,22,3.44,NU,1626951479
Maumere,-8.6199,122.2111,77.36,76,8,5.06,ID,1626951479
Sumbe,-11.2061,13.8437,77.99,66,1,9.86,AO,1626951479
Aripuanã,-9.1667,-60.6333,67.39,62,0,2.13,BR,1626951480
Leeton,-34.5667,146.4,48.11,81,100,8.05,AU,1626951480
Zhezkazgan,47.8043,67.7144,90.16,18,0,15.75,KZ,1626951480
Castrillón,43.3979,-6.7922,63.14,54,49,4.54,ES,1626951481
Plouzané,48.3833,-4.6167,84.22,52,0,11.5,FR,1626951481
Beloha,-25.1667,45.05,80.55,46,79,5.75,MG,1626951481
Esil,51.9556,66.4042,89.96,28,6,8.7,KZ,1626951481
Constitución,-35.3333,-72.4167,52.18,82,100,3.78,CL,1626951036
Roald,62.5833,6.1333,67.15,88,75,10.36,NO,1626951482
Namatanai,-3.6667,152.4333,79.07,84,63,7.25,PG,1626951482
Båtsfjord,70.6345,29.7185,45.36,71,98,26.55,NO,1626951483
Iquique,-20.2208,-70.1431,57.24,74,13,1.68,CL,1626951238
Pacific Grove,36.6177,-121.9166,57.76,90,5,1.01,US,1626951300
Lichinga,-13.3128,35.2406,71.69,53,75,9.22,MZ,1626951483
Kailāras,26.3167,77.6167,88.25,68,71,4.27,IN,1626951483
Souillac,-20.5167,57.5167,75.58,57,40,17.27,MU,1626951484
Spasskoye,44.6108,132.7969,78.89,70,91,2.8,RU,1626951484
Kyenjojo,0.6328,30.6214,88.0,24,14,4.74,UG,1626951484
Alyangula,-13.8483,136.4192,73.27,68,64,5.75,AU,1626951485
Puerto Madero,14.7208,-92.4215,79.39,70,30,4.88,MX,1626951485
Methóni,36.8197,21.7049,87.66,68,1,9.86,GR,1626951485
Isangel,-19.55,169.2667,73.71,88,99,8.34,VU,1626951485
Boende,-0.2167,20.8667,98.22,23,83,3.69,CD,1626951486
Port Blair,11.6667,92.75,82.67,84,100,21.85,IN,1626951486
Praia da Vitória,38.7333,-27.0667,71.76,78,75,14.36,PT,1626951486
Kinkala,-4.3614,14.7644,77.31,29,49,6.67,CG,1626951487
Cabedelo,-6.9811,-34.8339,72.27,78,75,16.28,BR,1626951487
Chortomlyk,47.6232,34.142,76.55,56,100,20.07,UA,1626951376
Tsimmerbude,54.675,20.1347,73.45,60,33,8.25,RU,1626951488
Broken Hill,-31.95,141.4333,44.31,81,90,19.57,AU,1626951488
Komoro,36.3167,138.4333,78.37,78,23,1.01,JP,1626951489
Baykit,61.67,96.37,71.78,54,63,2.84,RU,1626951489
Dalnerechensk,45.9339,133.7225,83.17,63,53,3.58,RU,1626951490
Lumeje,-11.55,20.7833,82.11,15,0,12.33,AO,1626951490
Eureka,40.8021,-124.1637,55.74,79,19,2.04,US,1626951490
Buin,-33.7333,-70.75,52.05,38,97,1.83,CL,1626951490
Sālūr,18.5333,83.2167,80.56,87,100,3.06,IN,1626951491
Cássia,-20.5831,-46.9219,60.71,57,44,2.55,BR,1626951491
San Cristobal,7.7669,-72.225,65.37,91,99,3.94,VE,1626951491
Eydhafushi,5.1033,73.0708,83.05,76,97,17.07,MV,1626951492
Jaqué,7.5175,-78.1703,79.0,88,100,6.15,PA,1626951492
Ust-Nera,64.5667,143.2,57.7,92,100,6.69,RU,1626951492
Kota Kinabalu,5.9749,116.0724,85.98,70,20,2.3,MY,1626951493
Ottawa,45.4112,-75.6981,61.03,84,75,1.01,CA,1626951334
Viedma,-40.8135,-62.9967,48.79,42,100,10.29,AR,1626951493
Luanda,-8.8368,13.2343,77.0,69,75,2.3,AO,1626951486
Distrikt Brokopondo,4.75,-55.1667,77.4,90,49,6.26,SR,1626951494
Xai-Xai,-25.0519,33.6442,72.91,30,0,13.4,MZ,1626951494
Annan,54.9884,-3.2565,78.78,66,11,0.47,GB,1626951495
Prince Rupert,54.3161,-130.3201,53.29,97,90,3.44,CA,1626951495
Pangnirtung,66.1451,-65.7125,41.85,82,76,6.6,CA,1626951495
High River,50.5834,-113.8687,60.1,73,0,6.2,CA,1626951496
Kiama,-34.6833,150.8667,55.58,64,83,5.99,AU,1626951496
Falun,60.6036,15.626,79.95,52,41,7.2,SE,1626951496
Grand-Lahou,5.1367,-5.0242,81.25,71,87,8.95,CI,1626951496
Hammerfest,70.6634,23.6821,45.05,81,75,8.05,NO,1626951497
Warri,5.5167,5.75,81.01,68,94,5.68,NG,1626951497
Denpasar,-8.65,115.2167,80.26,83,75,12.66,ID,1626951498
Aguada de Pasajeros,22.385,-80.8508,75.34,96,3,5.35,CU,1626951498
Marsá Maţrūḩ,31.3525,27.2453,86.2,66,0,16.11,EG,1626951253
Aswān,24.0934,32.907,106.9,14,0,5.75,EG,1626951253
Shimoda,34.6667,138.95,73.11,85,1,2.48,JP,1626951498
Comodoro Rivadavia,-45.8667,-67.5,53.46,54,0,14.97,AR,1626951499
Jalu,29.0331,21.5482,93.4,30,7,10.89,LY,1626951499
Mehamn,71.0357,27.8492,44.78,71,99,24.9,NO,1626951499
Ilulissat,69.2167,-51.1,39.42,69,100,0.43,GL,1626951500
Örnsköldsvik,63.2909,18.7153,67.15,48,75,25.32,SE,1626951500
Byron Bay,-28.65,153.6167,57.18,81,51,2.37,AU,1626951500
Saldanha,-33.0117,17.9442,51.85,63,87,11.34,ZA,1626951501
Satwās,22.5333,76.6833,79.57,86,100,6.35,IN,1626951501
Kokstad,-30.5472,29.4241,44.62,23,48,18.23,ZA,1626951501
Mitú,1.1983,-70.1733,70.25,99,99,1.77,CO,1626951502
Mahrīz,31.5917,54.4318,97.3,10,31,11.77,IR,1626951502
Yatou,37.15,122.3833,77.67,85,79,4.45,CN,1626951502
Kuybyshevo,47.8123,38.9073,80.92,59,60,13.78,RU,1626951503
Komniná,40.6,21.7833,83.1,30,0,4.12,GR,1626951503
Tortolì,39.9256,9.6572,91.98,44,0,8.01,IT,1626951503
Almaznyy,48.0448,40.045,77.14,53,80,10.65,RU,1626951503
Sakaiminato,35.55,133.2333,85.93,78,75,11.5,JP,1626951504
Antalaha,-14.9003,50.2788,77.09,58,0,10.87,MG,1626951504
Akureyri,65.6835,-18.0878,66.13,52,20,16.11,IS,1626951350
Houlton,46.1262,-67.8403,56.61,62,100,6.33,US,1626951223
Priargunsk,50.3691,119.1012,73.31,89,23,9.6,RU,1626951505
Caravelas,-17.7125,-39.2481,73.11,71,38,4.41,BR,1626951505
Pitimbu,-7.4706,-34.8086,72.19,77,86,16.55,BR,1626951505
Masumbwe,-3.6333,32.1833,87.1,22,2,6.62,TZ,1626951505
Stephenville,32.2207,-98.2023,70.25,90,1,0.0,US,1626951506
Dera Gopipur,31.9,76.2167,86.31,66,50,1.61,IN,1626951506
Nara,34.6851,135.8049,86.97,94,98,2.46,JP,1626951506
Barashevo,54.5325,42.8792,70.23,50,60,8.12,RU,1626951507
Narsaq,60.9167,-46.05,47.62,73,20,3.11,GL,1626951507
Waddān,29.1614,16.139,90.18,29,0,8.52,LY,1626951507
Billericay,51.6287,0.4196,83.16,59,0,1.01,GB,1626951507
Vozhega,60.4725,40.2213,62.46,46,83,9.51,RU,1626951508
Puerto Escondido,15.85,-97.0667,78.62,79,67,5.21,MX,1626951508
Korčula,42.9622,17.1369,86.56,56,0,10.94,HR,1626951509
Tshikapa,-6.4167,20.8,96.39,13,3,7.99,CD,1626951509
Coari,-4.085,-63.1414,72.95,83,11,0.83,BR,1626951509
Paamiut,61.994,-49.6678,43.52,78,100,6.73,GL,1626951510
Wanning,18.8003,110.3967,82.58,82,100,6.31,CN,1626951510
Winnemucca,40.973,-117.7357,66.11,12,70,4.68,US,1626951510
Poum,-20.2333,164.0167,71.2,74,6,14.76,NC,1626951511
Broome,42.2506,-75.833,57.67,89,41,1.01,US,1626951511
Morgan City,29.6994,-91.2068,78.01,91,0,3.4,US,1626951511
Toila,59.4236,27.5025,68.77,57,95,20.02,EE,1626951512
Belaya Gora,68.5333,146.4167,60.91,52,2,6.4,RU,1626951512
Kharitonovo,61.4009,47.4978,68.5,26,5,7.09,RU,1626951513
Matara,5.9485,80.5353,79.95,84,100,14.92,LK,1626951513
Clyde River,70.4692,-68.5914,39.43,100,90,3.44,CA,1626951513
Berdigestyakh,62.0989,126.6992,73.33,54,57,4.88,RU,1626951514
Beipiao,41.7919,120.7792,80.62,69,88,9.86,CN,1626951514
‘Ewa Beach,21.3156,-158.0072,78.75,68,40,15.01,US,1626951073
Huanren,41.2647,125.3667,77.92,83,100,2.8,CN,1626951514
Kholodnyy,62.7167,147.95,57.67,98,100,1.07,RU,1626951515
Samarai,-10.6167,150.6667,77.67,75,99,12.28,PG,1626951515
Biak,-0.9131,122.8766,73.78,92,98,8.46,ID,1626951515
Calabozo,8.9242,-67.4293,72.14,93,95,4.03,VE,1626951516
Alexandria,31.2156,29.9553,89.56,58,20,9.22,EG,1626951406
Codrington,-38.2667,141.9667,45.45,76,100,11.56,AU,1626951516
Villazón,-22.0866,-65.5942,35.64,37,0,0.72,BO,1626951516
Bumbuna,9.05,-11.7333,77.38,87,98,3.78,SL,1626951517
Richards Bay,-28.783,32.0377,64.2,39,33,15.21,ZA,1626951518
Praia,14.9215,-23.5087,82.94,74,20,9.22,CV,1626951518
Saint Peter,13.25,-59.6167,79.36,82,98,17.38,BB,1626951518
Launceston,-41.45,147.1667,49.8,89,75,10.36,AU,1626951519
Camacha,33.0833,-16.3333,71.02,73,20,9.22,PT,1626951519
Santa Ana,33.7456,-117.8678,77.58,85,89,2.64,US,1626951520
Keïta,14.7551,5.7749,86.0,42,78,12.95,NE,1626951520
Terrace,54.5163,-128.6035,56.43,94,90,11.5,CA,1626951331
Ovalle,-30.5983,-71.2003,55.87,58,59,1.34,CL,1626951521
Cabo San Lucas,22.8909,-109.9124,82.51,72,1,1.99,MX,1626951522
Mabaruma,8.2,-59.7833,74.14,99,98,1.7,GY,1626951522
Superior,46.7208,-92.1041,66.09,84,90,3.44,US,1626951325
Luxor,25.6989,32.6421,102.25,22,0,2.3,EG,1626951523
Arrondissement du Havre,49.5833,0.3333,80.35,57,0,4.61,FR,1626951523
Karasjok,69.4719,25.5112,44.71,94,100,8.97,NO,1626951524
Yumen,40.2833,97.2,94.42,21,38,19.62,CN,1626951524
Port Hedland,-20.3167,118.5667,75.25,73,25,12.66,AU,1626951525
Weligama,5.9667,80.4167,79.75,85,99,14.85,LK,1626951525
Avallon,47.4833,3.9,76.17,62,5,6.8,FR,1626951526
Visby,57.6409,18.296,79.05,60,0,13.8,SE,1626951526
Laguna,38.421,-121.4238,73.2,67,1,3.44,US,1626951526
Deputatsky,69.3,139.9,54.3,67,95,6.96,RU,1626951527
Damara,4.9608,18.7035,78.22,53,100,3.8,CF,1626951527
Burnie,-41.0667,145.9167,51.93,81,100,11.79,AU,1626951528
Ilhabela,-23.7781,-45.3581,61.57,80,3,2.01,BR,1626951528
Atbasar,51.8,68.3333,85.64,26,1,5.93,KZ,1626951528
Peniche,39.3558,-9.3811,81.73,78,3,8.63,PT,1626951529
Khulo,41.644,42.3129,66.6,98,100,4.23,GE,1626951529
Tura,25.5198,90.2201,83.16,89,88,2.3,IN,1626951529
Puerto El Triunfo,13.2833,-88.55,78.96,65,20,5.73,SV,1626951529
Bogense,55.5669,10.0886,67.42,60,12,7.81,DK,1626951530
Faya,18.3851,42.4509,77.11,74,49,9.93,SA,1626951530
Oxapampa,-10.5775,-75.4017,50.67,90,1,4.36,PE,1626951530
Nizip,37.0097,37.7942,100.53,14,0,10.07,TR,1626951531
Imeni Poliny Osipenko,52.4201,136.4853,79.99,65,86,2.68,RU,1626951531
Nagato,34.3833,131.2,82.31,81,97,3.62,JP,1626951531
Arrecife,28.963,-13.5477,77.07,69,20,23.02,ES,1626951532
Bosaso,11.2842,49.1816,94.98,46,20,12.66,SO,1626951532
Christchurch,-43.5333,172.6333,46.9,89,90,1.99,NZ,1626951532
Chake Chake,-5.2459,39.7666,81.82,58,6,12.46,TZ,1626951532
Esim,4.8699,-2.2405,81.14,68,93,8.52,GH,1626951533
Southern Pines,35.174,-79.3923,72.81,95,3,5.59,US,1626951502
Logan Lake,50.4998,-120.8025,55.24,85,16,5.66,CA,1626951533
Airai,-8.9266,125.4092,57.09,79,56,1.48,TL,1626951534
Abu Dhabi,24.4667,54.3667,107.71,29,0,11.5,AE,1626951336
Omsukchan,62.5333,155.8,52.36,97,100,6.11,RU,1626951534
Altay,47.8667,88.1167,85.68,25,100,9.84,CN,1626951534
Taoudenni,22.6783,-3.9836,112.19,7,3,10.87,ML,1626951534
Nikolayevsk-on-Amur,53.1406,140.73,71.26,93,94,2.21,RU,1626951535
Bitung,1.4451,125.1824,77.85,86,37,13.69,ID,1626951535
Zeya,53.75,127.2667,81.18,74,33,4.27,RU,1626951535
Port Hardy,50.6996,-127.4199,53.78,100,90,2.3,CA,1626951536
Luwuk,-0.9516,122.7875,75.27,94,99,6.35,ID,1626951536
Hohhot,40.8106,111.6522,82.69,51,20,13.42,CN,1626951536
Zambezi,-13.5432,23.1047,83.39,16,0,8.79,ZM,1626951537
Teahupoo,-17.8333,-149.2667,67.96,69,45,12.12,PF,1626951537
Fort Nelson,58.8053,-122.7002,54.99,94,75,3.44,CA,1626951027
Alta Floresta,-9.8756,-56.0861,67.44,47,0,3.6,BR,1626951537
Ternate,0.8,127.4,80.8,80,30,9.22,ID,1626951538
Mandiana,10.6333,-8.6833,80.42,71,84,9.48,GN,1626951538
Cumberland,35.0502,-78.8664,73.9,88,1,3.0,US,1626951538
Kibre Mengist,5.8833,38.9833,74.77,48,93,7.76,ET,1626951539
North Platte,41.1239,-100.7654,68.02,74,31,4.0,US,1626951539
Aktobe,50.2797,57.2072,96.89,26,0,8.95,KZ,1626951539
Romitan,39.9343,64.3814,100.35,15,0,11.5,UZ,1626951540
